{"StationsResp":{"Stations":{"Station":[{"Address":{"City":"Washington","State":"DC","Street":"607 13th St. NW","Zip":"20005"},"Code":"A01","Lat":"38.898303","LineCode1":"RD","LineCode2":{"_i:nil":"true"},"LineCode3":{"_i:nil":"true"},"LineCode4":{"_i:nil":"true"},"Lon":"-77.028099","Name":"Metro Center","StationTogether1":"C01","StationTogether2":""},{"Address":{"City":"Washington","State":"DC","Street":"1001 Connecticut Avenue NW","Zip":"20036"},"Code":"A02","Lat":"38.903192","LineCode1":"RD","LineCode2":{"_i:nil":"true"},"LineCode3":{"_i:nil":"true"},"LineCode4":{"_i:nil":"true"},"Lon":"-77.039766","Name":"Farragut North","StationTogether1":"","StationTogether2":""},{"Address":{"City":"Washington","State":"DC","Street":"1525 20th St. NW","Zip":"20036"},"Code":"A03","Lat":"38.909499","LineCode1":"RD","LineCode2":{"_i:nil":"true"},"LineCode3":{"_i:nil":"true"},"LineCode4":{"_i:nil":"true"},"Lon":"-77.04362","Name":"Dupont Circle","StationTogether1":"","StationTogether2":""},{"Address":{"City":"Washington","State":"DC","Street":"2700 Connecticut Ave., NW","Zip":"20008"},"Code":"A04","Lat":"38.924999","LineCode1":"RD","LineCode2":{"_i:nil":"true"},"LineCode3":{"_i:nil":"true"},"LineCode4":{"_i:nil":"true"},"Lon":"-77.052648","Name":"Woodley Park-Zoo/Adams Morgan","StationTogether1":"","StationTogether2":""},{"Address":{"City":"Washington","State":"DC","Street":"3599 Connecticut Avenue NW","Zip":"20008"},"Code":"A05","Lat":"38.934703","LineCode1":"RD","LineCode2":{"_i:nil":"true"},"LineCode3":{"_i:nil":"true"},"LineCode4":{"_i:nil":"true"},"Lon":"-77.058226","Name":"Cleveland Park","StationTogether1":"","StationTogether2":""},{"Address":{"City":"Washington","State":"DC","Street":"4200 Connecticut Avenue NW","Zip":"20008"},"Code":"A06","Lat":"38.94362","LineCode1":"RD","LineCode2":{"_i:nil":"true"},"LineCode3":{"_i:nil":"true"},"LineCode4":{"_i:nil":"true"},"Lon":"-77.063511","Name":"Van Ness-UDC","StationTogether1":"","StationTogether2":""},{"Address":{"City":"Washington","State":"DC","Street":"4501 Wisconsin Avenue NW","Zip":"20016"},"Code":"A07","Lat":"38.947808","LineCode1":"RD","LineCode2":{"_i:nil":"true"},"LineCode3":{"_i:nil":"true"},"LineCode4":{"_i:nil":"true"},"Lon":"-77.079615","Name":"Tenleytown-AU","StationTogether1":"","StationTogether2":""},{"Address":{"City":"Washington","State":"DC","Street":"5337 Wisconsin Avenue NW","Zip":"20015"},"Code":"A08","Lat":"38.960744","LineCode1":"RD","LineCode2":{"_i:nil":"true"},"LineCode3":{"_i:nil":"true"},"LineCode4":{"_i:nil":"true"},"Lon":"-77.085969","Name":"Friendship Heights","StationTogether1":"","StationTogether2":""},{"Address":{"City":"Bethesda","State":"MD","Street":"7450 Wisconsin Avenue","Zip":"20814"},"Code":"A09","Lat":"38.984282","LineCode1":"RD","LineCode2":{"_i:nil":"true"},"LineCode3":{"_i:nil":"true"},"LineCode4":{"_i:nil":"true"},"Lon":"-77.094431","Name":"Bethesda","StationTogether1":"","StationTogether2":""},{"Address":{"City":"Bethesda","State":"MD","Street":"8810 Rockville Pike","Zip":"20814"},"Code":"A10","Lat":"38.999947","LineCode1":"RD","LineCode2":{"_i:nil":"true"},"LineCode3":{"_i:nil":"true"},"LineCode4":{"_i:nil":"true"},"Lon":"-77.097253","Name":"Medical Center","StationTogether1":"","StationTogether2":""},{"Address":{"City":"Bethesda","State":"MD","Street":"10300 Rockville Pike","Zip":"20852"},"Code":"A11","Lat":"39.029158","LineCode1":"RD","LineCode2":{"_i:nil":"true"},"LineCode3":{"_i:nil":"true"},"LineCode4":{"_i:nil":"true"},"Lon":"-77.10415","Name":"Grosvenor-Strathmore","StationTogether1":"","StationTogether2":""},{"Address":{"City":"Rockville","State":"MD","Street":"5500 Marinelli Road","Zip":"20852"},"Code":"A12","Lat":"39.048043","LineCode1":"RD","LineCode2":{"_i:nil":"true"},"LineCode3":{"_i:nil":"true"},"LineCode4":{"_i:nil":"true"},"Lon":"-77.113131","Name":"White Flint","StationTogether1":"","StationTogether2":""},{"Address":{"City":"Rockville","State":"MD","Street":"1600 Chapman Avenue","Zip":"20852"},"Code":"A13","Lat":"39.062359","LineCode1":"RD","LineCode2":{"_i:nil":"true"},"LineCode3":{"_i:nil":"true"},"LineCode4":{"_i:nil":"true"},"Lon":"-77.121113","Name":"Twinbrook","StationTogether1":"","StationTogether2":""},{"Address":{"City":"Rockville","State":"MD","Street":"251 Hungerford Drive","Zip":"20850"},"Code":"A14","Lat":"39.084215","LineCode1":"RD","LineCode2":{"_i:nil":"true"},"LineCode3":{"_i:nil":"true"},"LineCode4":{"_i:nil":"true"},"Lon":"-77.146424","Name":"Rockville","StationTogether1":"","StationTogether2":""},{"Address":{"City":"Rockville","State":"MD","Street":"15903 Somerville Drive","Zip":"20855"},"Code":"A15","Lat":"39.119819","LineCode1":"RD","LineCode2":{"_i:nil":"true"},"LineCode3":{"_i:nil":"true"},"LineCode4":{"_i:nil":"true"},"Lon":"-77.164921","Name":"Shady Grove","StationTogether1":"","StationTogether2":""},{"Address":{"City":"Washington","State":"DC","Street":"630 H St. NW","Zip":"20001"},"Code":"B01","Lat":"38.89834","LineCode1":"RD","LineCode2":{"_i:nil":"true"},"LineCode3":{"_i:nil":"true"},"LineCode4":{"_i:nil":"true"},"Lon":"-77.021851","Name":"Gallery Pl-Chinatown","StationTogether1":"F01","StationTogether2":""},{"Address":{"City":"Washington","State":"DC","Street":"450 F Street NW","Zip":"20001"},"Code":"B02","Lat":"38.896084","LineCode1":"RD","LineCode2":{"_i:nil":"true"},"LineCode3":{"_i:nil":"true"},"LineCode4":{"_i:nil":"true"},"Lon":"-77.016643","Name":"Judiciary Square","StationTogether1":"","StationTogether2":""},{"Address":{"City":"Washington","State":"DC","Street":"701 First St. NE","Zip":"20002"},"Code":"B03","Lat":"38.897723","LineCode1":"RD","LineCode2":{"_i:nil":"true"},"LineCode3":{"_i:nil":"true"},"LineCode4":{"_i:nil":"true"},"Lon":"-77.006745","Name":"Union Station","StationTogether1":"","StationTogether2":""},{"Address":{"City":"Washington","State":"DC","Street":"919 Rhode Island Avenue NE","Zip":"20018"},"Code":"B04","Lat":"38.920741","LineCode1":"RD","LineCode2":{"_i:nil":"true"},"LineCode3":{"_i:nil":"true"},"LineCode4":{"_i:nil":"true"},"Lon":"-76.995984","Name":"Rhode Island Ave-Brentwood","StationTogether1":"","StationTogether2":""},{"Address":{"City":"Washington","State":"DC","Street":"801 Michigan Avenue NE","Zip":"20017"},"Code":"B05","Lat":"38.933234","LineCode1":"RD","LineCode2":{"_i:nil":"true"},"LineCode3":{"_i:nil":"true"},"LineCode4":{"_i:nil":"true"},"Lon":"-76.994544","Name":"Brookland-CUA","StationTogether1":"","StationTogether2":""},{"Address":{"City":"Washington","State":"DC","Street":"550 Galloway Street NE","Zip":"20011"},"Code":"B06","Lat":"38.951777","LineCode1":"RD","LineCode2":{"_i:nil":"true"},"LineCode3":{"_i:nil":"true"},"LineCode4":{"_i:nil":"true"},"Lon":"-77.002174","Name":"Fort Totten","StationTogether1":"E06","StationTogether2":""},{"Address":{"City":"Washington","State":"DC","Street":"327 Cedar Street NW","Zip":"20012"},"Code":"B07","Lat":"38.975532","LineCode1":"RD","LineCode2":{"_i:nil":"true"},"LineCode3":{"_i:nil":"true"},"LineCode4":{"_i:nil":"true"},"Lon":"-77.017834","Name":"Takoma","StationTogether1":"","StationTogether2":""},{"Address":{"City":"Silver Spring","State":"MD","Street":"8400 Colesville Road","Zip":"20910"},"Code":"B08","Lat":"38.993841","LineCode1":"RD","LineCode2":{"_i:nil":"true"},"LineCode3":{"_i:nil":"true"},"LineCode4":{"_i:nil":"true"},"Lon":"-77.031321","Name":"Silver Spring","StationTogether1":"","StationTogether2":""},{"Address":{"City":"Forest Glen","State":"MD","Street":"9730 Georgia Avenue","Zip":"20910"},"Code":"B09","Lat":"39.015413","LineCode1":"RD","LineCode2":{"_i:nil":"true"},"LineCode3":{"_i:nil":"true"},"LineCode4":{"_i:nil":"true"},"Lon":"-77.042953","Name":"Forest Glen","StationTogether1":"","StationTogether2":""},{"Address":{"City":"Silver Spring","State":"MD","Street":"11171 Georgia Avenue","Zip":"20902"},"Code":"B10","Lat":"39.038558","LineCode1":"RD","LineCode2":{"_i:nil":"true"},"LineCode3":{"_i:nil":"true"},"LineCode4":{"_i:nil":"true"},"Lon":"-77.051098","Name":"Wheaton","StationTogether1":"","StationTogether2":""},{"Address":{"City":"Silver Spring","State":"MD","Street":"12501 Georgia Avenue","Zip":"20906"},"Code":"B11","Lat":"39.061713","LineCode1":"RD","LineCode2":{"_i:nil":"true"},"LineCode3":{"_i:nil":"true"},"LineCode4":{"_i:nil":"true"},"Lon":"-77.05341","Name":"Glenmont","StationTogether1":"","StationTogether2":""},{"Address":{"City":"Washington","State":"DC","Street":"200 Florida Ave N.E.","Zip":"20002"},"Code":"B35","Lat":"38.907407","LineCode1":"RD","LineCode2":{"_i:nil":"true"},"LineCode3":{"_i:nil":"true"},"LineCode4":{"_i:nil":"true"},"Lon":"-77.002961","Name":"NoMa-Gallaudet U","StationTogether1":"","StationTogether2":""},{"Address":{"City":"Washington","State":"DC","Street":"607 13th St. NW","Zip":"20005"},"Code":"C01","Lat":"38.898303","LineCode1":"BL","LineCode2":"OR","LineCode3":"SV","LineCode4":{"_i:nil":"true"},"Lon":"-77.028099","Name":"Metro Center","StationTogether1":"A01","StationTogether2":""},{"Address":{"City":"Washington","State":"DC","Street":"1400 I St. NW","Zip":"20005"},"Code":"C02","Lat":"38.901316","LineCode1":"BL","LineCode2":"OR","LineCode3":"SV","LineCode4":{"_i:nil":"true"},"Lon":"-77.033652","Name":"McPherson Square","StationTogether1":"","StationTogether2":""},{"Address":{"City":"Washington","State":"DC","Street":"900 18th St. NW","Zip":"20006"},"Code":"C03","Lat":"38.901311","LineCode1":"BL","LineCode2":"OR","LineCode3":"SV","LineCode4":{"_i:nil":"true"},"Lon":"-77.03981","Name":"Farragut West","StationTogether1":"","StationTogether2":""},{"Address":{"City":"Washington","State":"DC","Street":"2301 I St. NW","Zip":"20037"},"Code":"C04","Lat":"38.900599","LineCode1":"BL","LineCode2":"OR","LineCode3":"SV","LineCode4":{"_i:nil":"true"},"Lon":"-77.050273","Name":"Foggy Bottom-GWU","StationTogether1":"","StationTogether2":""},{"Address":{"City":"Arlington","State":"VA","Street":"1850 N. Moore Street","Zip":"22209"},"Code":"C05","Lat":"38.896595","LineCode1":"BL","LineCode2":"OR","LineCode3":"SV","LineCode4":{"_i:nil":"true"},"Lon":"-77.07146","Name":"Rosslyn","StationTogether1":"","StationTogether2":""},{"Address":{"City":"Arlington","State":"VA","Street":"1000 North Memorial Drive","Zip":"22211"},"Code":"C06","Lat":"38.884574","LineCode1":"BL","LineCode2":{"_i:nil":"true"},"LineCode3":{"_i:nil":"true"},"LineCode4":{"_i:nil":"true"},"Lon":"-77.063108","Name":"Arlington Cemetery","StationTogether1":"","StationTogether2":""},{"Address":{"City":"Arlington","State":"VA","Street":"2 South Rotary Road","Zip":"22202"},"Code":"C07","Lat":"38.869349","LineCode1":"BL","LineCode2":"YL","LineCode3":{"_i:nil":"true"},"LineCode4":{"_i:nil":"true"},"Lon":"-77.054013","Name":"Pentagon","StationTogether1":"","StationTogether2":""},{"Address":{"City":"Arlington","State":"VA","Street":"1250 South Hayes St.","Zip":"22202"},"Code":"C08","Lat":"38.863045","LineCode1":"BL","LineCode2":"YL","LineCode3":{"_i:nil":"true"},"LineCode4":{"_i:nil":"true"},"Lon":"-77.059507","Name":"Pentagon City","StationTogether1":"","StationTogether2":""},{"Address":{"City":"Arlington","State":"VA","Street":"1750 South Clark St.","Zip":"22202"},"Code":"C09","Lat":"38.85779","LineCode1":"BL","LineCode2":"YL","LineCode3":{"_i:nil":"true"},"LineCode4":{"_i:nil":"true"},"Lon":"-77.050589","Name":"Crystal City","StationTogether1":"","StationTogether2":""},{"Address":{"City":"Arlington","State":"VA","Street":"2400 S. Smith Blvd.","Zip":"22202"},"Code":"C10","Lat":"38.852985","LineCode1":"BL","LineCode2":"YL","LineCode3":{"_i:nil":"true"},"LineCode4":{"_i:nil":"true"},"Lon":"-77.043805","Name":"Ronald Reagan Washington National Airport","StationTogether1":"","StationTogether2":""},{"Address":{"City":"Alexandria","State":"VA","Street":"700 N. West St.","Zip":"22301"},"Code":"C12","Lat":"38.814009","LineCode1":"BL","LineCode2":"YL","LineCode3":{"_i:nil":"true"},"LineCode4":{"_i:nil":"true"},"Lon":"-77.053763","Name":"Braddock Road","StationTogether1":"","StationTogether2":""},{"Address":{"City":"Alexandria","State":"VA","Street":"1900 King Street","Zip":"22301"},"Code":"C13","Lat":"38.806474","LineCode1":"BL","LineCode2":"YL","LineCode3":{"_i:nil":"true"},"LineCode4":{"_i:nil":"true"},"Lon":"-77.061115","Name":"King St-Old Town","StationTogether1":"","StationTogether2":""},{"Address":{"City":"Alexandria","State":"VA","Street":"2400 Eisenhower Avenue","Zip":"22314"},"Code":"C14","Lat":"38.800313","LineCode1":"YL","LineCode2":{"_i:nil":"true"},"LineCode3":{"_i:nil":"true"},"LineCode4":{"_i:nil":"true"},"Lon":"-77.071173","Name":"Eisenhower Avenue","StationTogether1":"","StationTogether2":""},{"Address":{"City":"Huntington","State":"VA","Street":"2501 Huntington Ave","Zip":"22303"},"Code":"C15","Lat":"38.793841","LineCode1":"YL","LineCode2":{"_i:nil":"true"},"LineCode3":{"_i:nil":"true"},"LineCode4":{"_i:nil":"true"},"Lon":"-77.075301","Name":"Huntington","StationTogether1":"","StationTogether2":""},{"Address":{"City":"Washington","State":"DC","Street":"302 12th St. NW","Zip":"20004"},"Code":"D01","Lat":"38.893757","LineCode1":"BL","LineCode2":"OR","LineCode3":"SV","LineCode4":{"_i:nil":"true"},"Lon":"-77.028218","Name":"Federal Triangle","StationTogether1":"","StationTogether2":""},{"Address":{"City":"Washington","State":"DC","Street":"1200 Independence Avenue SW","Zip":"20004"},"Code":"D02","Lat":"38.888022","LineCode1":"BL","LineCode2":"OR","LineCode3":"SV","LineCode4":{"_i:nil":"true"},"Lon":"-77.028232","Name":"Smithsonian","StationTogether1":"","StationTogether2":""},{"Address":{"City":"Washington","State":"DC","Street":"600 Maryland Avenue SW","Zip":"20024"},"Code":"D03","Lat":"38.884775","LineCode1":"BL","LineCode2":"OR","LineCode3":"SV","LineCode4":{"_i:nil":"true"},"Lon":"-77.021964","Name":"L'Enfant Plaza","StationTogether1":"F03","StationTogether2":""},{"Address":{"City":"Washington","State":"DC","Street":"401 3rd Street SW","Zip":"20024"},"Code":"D04","Lat":"38.884958","LineCode1":"BL","LineCode2":"OR","LineCode3":"SV","LineCode4":{"_i:nil":"true"},"Lon":"-77.01586","Name":"Federal Center SW","StationTogether1":"","StationTogether2":""},{"Address":{"City":"Washington","State":"DC","Street":"355 First Street SE","Zip":"20003"},"Code":"D05","Lat":"38.884968","LineCode1":"BL","LineCode2":"OR","LineCode3":"SV","LineCode4":{"_i:nil":"true"},"Lon":"-77.005137","Name":"Capitol South","StationTogether1":"","StationTogether2":""},{"Address":{"City":"Washington","State":"DC","Street":"701 Pennsylvania Avenue SE","Zip":"20003"},"Code":"D06","Lat":"38.884124","LineCode1":"BL","LineCode2":"OR","LineCode3":"SV","LineCode4":{"_i:nil":"true"},"Lon":"-76.995334","Name":"Eastern Market","StationTogether1":"","StationTogether2":""},{"Address":{"City":"Washington","State":"DC","Street":"700 14th Street SE","Zip":"20003"},"Code":"D07","Lat":"38.880841","LineCode1":"BL","LineCode2":"OR","LineCode3":"SV","LineCode4":{"_i:nil":"true"},"Lon":"-76.985721","Name":"Potomac Ave","StationTogether1":"","StationTogether2":""},{"Address":{"City":"Washington","State":"DC","Street":"192 19th St. SE","Zip":"20003"},"Code":"D08","Lat":"38.88594","LineCode1":"BL","LineCode2":"OR","LineCode3":"SV","LineCode4":{"_i:nil":"true"},"Lon":"-76.977485","Name":"Stadium-Armory","StationTogether1":"","StationTogether2":""},{"Address":{"City":"Washington","State":"DC","Street":"4000 Minnesota Avenue NE","Zip":"20019"},"Code":"D09","Lat":"38.898284","LineCode1":"OR","LineCode2":{"_i:nil":"true"},"LineCode3":{"_i:nil":"true"},"LineCode4":{"_i:nil":"true"},"Lon":"-76.948042","Name":"Minnesota Ave","StationTogether1":"","StationTogether2":""},{"Address":{"City":"Washington","State":"DC","Street":"4720 Minnesota Avenue NE","Zip":"20019"},"Code":"D10","Lat":"38.907734","LineCode1":"OR","LineCode2":{"_i:nil":"true"},"LineCode3":{"_i:nil":"true"},"LineCode4":{"_i:nil":"true"},"Lon":"-76.936177","Name":"Deanwood","StationTogether1":"","StationTogether2":""},{"Address":{"City":"Cheverly","State":"MD","Street":"5501 Columbia Park","Zip":"20785"},"Code":"D11","Lat":"38.91652","LineCode1":"OR","LineCode2":{"_i:nil":"true"},"LineCode3":{"_i:nil":"true"},"LineCode4":{"_i:nil":"true"},"Lon":"-76.915427","Name":"Cheverly","StationTogether1":"","StationTogether2":""},{"Address":{"City":"Hyattsville","State":"MD","Street":"3000 Pennsy Drive","Zip":"20785"},"Code":"D12","Lat":"38.934411","LineCode1":"OR","LineCode2":{"_i:nil":"true"},"LineCode3":{"_i:nil":"true"},"LineCode4":{"_i:nil":"true"},"Lon":"-76.890988","Name":"Landover","StationTogether1":"","StationTogether2":""},{"Address":{"City":"New Carrollton","State":"MD","Street":"4700 Garden City Drive","Zip":"20784"},"Code":"D13","Lat":"38.947674","LineCode1":"OR","LineCode2":{"_i:nil":"true"},"LineCode3":{"_i:nil":"true"},"LineCode4":{"_i:nil":"true"},"Lon":"-76.872144","Name":"New Carrollton","StationTogether1":"","StationTogether2":""},{"Address":{"City":"Washington","State":"DC","Street":"700 M St. NW","Zip":"20001"},"Code":"E01","Lat":"38.905604","LineCode1":"GR","LineCode2":"YL","LineCode3":{"_i:nil":"true"},"LineCode4":{"_i:nil":"true"},"Lon":"-77.022256","Name":"Mt Vernon Sq 7th St-Convention Center","StationTogether1":"","StationTogether2":""},{"Address":{"City":"Washington","State":"DC","Street":"1701 8th St. NW","Zip":"20001"},"Code":"E02","Lat":"38.912919","LineCode1":"GR","LineCode2":"YL","LineCode3":{"_i:nil":"true"},"LineCode4":{"_i:nil":"true"},"Lon":"-77.022194","Name":"Shaw-Howard U","StationTogether1":"","StationTogether2":""},{"Address":{"City":"Washington","State":"DC","Street":"1240 U Street NW","Zip":"20009"},"Code":"E03","Lat":"38.916489","LineCode1":"GR","LineCode2":"YL","LineCode3":{"_i:nil":"true"},"LineCode4":{"_i:nil":"true"},"Lon":"-77.028938","Name":"U Street/African-Amer Civil War Memorial/Cardozo","StationTogether1":"","StationTogether2":""},{"Address":{"City":"Washington","State":"DC","Street":"3030 14th St. NW","Zip":"20009"},"Code":"E04","Lat":"38.928672","LineCode1":"GR","LineCode2":"YL","LineCode3":{"_i:nil":"true"},"LineCode4":{"_i:nil":"true"},"Lon":"-77.032775","Name":"Columbia Heights","StationTogether1":"","StationTogether2":""},{"Address":{"City":"Washington","State":"DC","Street":"3700 Georgia Avenue NW","Zip":"20010"},"Code":"E05","Lat":"38.936077","LineCode1":"GR","LineCode2":"YL","LineCode3":{"_i:nil":"true"},"LineCode4":{"_i:nil":"true"},"Lon":"-77.024728","Name":"Georgia Ave-Petworth","StationTogether1":"","StationTogether2":""},{"Address":{"City":"Washington","State":"DC","Street":"550 Galloway Street NE","Zip":"20011"},"Code":"E06","Lat":"38.951777","LineCode1":"GR","LineCode2":"YL","LineCode3":{"_i:nil":"true"},"LineCode4":{"_i:nil":"true"},"Lon":"-77.002174","Name":"Fort Totten","StationTogether1":"B06","StationTogether2":""},{"Address":{"City":"Hyattsville","State":"MD","Street":"2700 Hamilton St.","Zip":"20782"},"Code":"E07","Lat":"38.954931","LineCode1":"GR","LineCode2":{"_i:nil":"true"},"LineCode3":{"_i:nil":"true"},"LineCode4":{"_i:nil":"true"},"Lon":"-76.969881","Name":"West Hyattsville","StationTogether1":"","StationTogether2":""},{"Address":{"City":"Hyattsville","State":"MD","Street":"3575 East West Highway","Zip":"20782"},"Code":"E08","Lat":"38.965276","LineCode1":"GR","LineCode2":{"_i:nil":"true"},"LineCode3":{"_i:nil":"true"},"LineCode4":{"_i:nil":"true"},"Lon":"-76.956182","Name":"Prince George's Plaza","StationTogether1":"","StationTogether2":""},{"Address":{"City":"College Park","State":"MD","Street":"4931 Calvert Road","Zip":"20740"},"Code":"E09","Lat":"38.978523","LineCode1":"GR","LineCode2":{"_i:nil":"true"},"LineCode3":{"_i:nil":"true"},"LineCode4":{"_i:nil":"true"},"Lon":"-76.928432","Name":"College Park-U of MD","StationTogether1":"","StationTogether2":""},{"Address":{"City":"Greenbelt","State":"MD","Street":"5717 Greenbelt Metro Drive","Zip":"20740"},"Code":"E10","Lat":"39.011036","LineCode1":"GR","LineCode2":{"_i:nil":"true"},"LineCode3":{"_i:nil":"true"},"LineCode4":{"_i:nil":"true"},"Lon":"-76.911362","Name":"Greenbelt","StationTogether1":"","StationTogether2":""},{"Address":{"City":"Washington","State":"DC","Street":"630 H St. NW","Zip":"20001"},"Code":"F01","Lat":"38.89834","LineCode1":"GR","LineCode2":"YL","LineCode3":{"_i:nil":"true"},"LineCode4":{"_i:nil":"true"},"Lon":"-77.021851","Name":"Gallery Pl-Chinatown","StationTogether1":"B01","StationTogether2":""},{"Address":{"City":"Washington","State":"DC","Street":"701 Pennsylvania Avenue NW","Zip":"20004"},"Code":"F02","Lat":"38.893893","LineCode1":"GR","LineCode2":"YL","LineCode3":{"_i:nil":"true"},"LineCode4":{"_i:nil":"true"},"Lon":"-77.021902","Name":"Archives-Navy Memorial-Penn Quarter","StationTogether1":"","StationTogether2":""},{"Address":{"City":"Washington","State":"DC","Street":"600 Maryland Avenue SW","Zip":"20024"},"Code":"F03","Lat":"38.884775","LineCode1":"GR","LineCode2":"YL","LineCode3":{"_i:nil":"true"},"LineCode4":{"_i:nil":"true"},"Lon":"-77.021964","Name":"L'Enfant Plaza","StationTogether1":"D03","StationTogether2":""},{"Address":{"City":"Washington","State":"DC","Street":"399 M Street SW","Zip":"20024"},"Code":"F04","Lat":"38.876221","LineCode1":"GR","LineCode2":{"_i:nil":"true"},"LineCode3":{"_i:nil":"true"},"LineCode4":{"_i:nil":"true"},"Lon":"-77.017491","Name":"Waterfront","StationTogether1":"","StationTogether2":""},{"Address":{"City":"Washington","State":"DC","Street":"200 M Street SE","Zip":"20003"},"Code":"F05","Lat":"38.876588","LineCode1":"GR","LineCode2":{"_i:nil":"true"},"LineCode3":{"_i:nil":"true"},"LineCode4":{"_i:nil":"true"},"Lon":"-77.005086","Name":"Navy Yard-Ballpark","StationTogether1":"","StationTogether2":""},{"Address":{"City":"Washington","State":"DC","Street":"1101 Howard Road SE","Zip":"20020"},"Code":"F06","Lat":"38.862072","LineCode1":"GR","LineCode2":{"_i:nil":"true"},"LineCode3":{"_i:nil":"true"},"LineCode4":{"_i:nil":"true"},"Lon":"-76.995648","Name":"Anacostia","StationTogether1":"","StationTogether2":""},{"Address":{"City":"Washington","State":"DC","Street":"1290 Alabama Avenue SE","Zip":"20020"},"Code":"F07","Lat":"38.845334","LineCode1":"GR","LineCode2":{"_i:nil":"true"},"LineCode3":{"_i:nil":"true"},"LineCode4":{"_i:nil":"true"},"Lon":"-76.98817","Name":"Congress Heights","StationTogether1":"","StationTogether2":""},{"Address":{"City":"Temple Hills","State":"MD","Street":"1411 Southern Avenue","Zip":"20748"},"Code":"F08","Lat":"38.840974","LineCode1":"GR","LineCode2":{"_i:nil":"true"},"LineCode3":{"_i:nil":"true"},"LineCode4":{"_i:nil":"true"},"Lon":"-76.97536","Name":"Southern Avenue","StationTogether1":"","StationTogether2":""},{"Address":{"City":"Temple Hills","State":"MD","Street":"3101 Branch Avenue","Zip":"20748"},"Code":"F09","Lat":"38.851187","LineCode1":"GR","LineCode2":{"_i:nil":"true"},"LineCode3":{"_i:nil":"true"},"LineCode4":{"_i:nil":"true"},"Lon":"-76.956565","Name":"Naylor Road","StationTogether1":"","StationTogether2":""},{"Address":{"City":"Suitland","State":"MD","Street":"4500 Silver Hill Road","Zip":"20746"},"Code":"F10","Lat":"38.843891","LineCode1":"GR","LineCode2":{"_i:nil":"true"},"LineCode3":{"_i:nil":"true"},"LineCode4":{"_i:nil":"true"},"Lon":"-76.932022","Name":"Suitland","StationTogether1":"","StationTogether2":""},{"Address":{"City":"Suitland","State":"MD","Street":"4704 Old Soper Road","Zip":"20746"},"Code":"F11","Lat":"38.826995","LineCode1":"GR","LineCode2":{"_i:nil":"true"},"LineCode3":{"_i:nil":"true"},"LineCode4":{"_i:nil":"true"},"Lon":"-76.912134","Name":"Branch Ave","StationTogether1":"","StationTogether2":""},{"Address":{"City":"Washington","State":"DC","Street":"4500 Benning Road","Zip":"20019"},"Code":"G01","Lat":"38.890488","LineCode1":"BL","LineCode2":"SV","LineCode3":{"_i:nil":"true"},"LineCode4":{"_i:nil":"true"},"Lon":"-76.938291","Name":"Benning Road","StationTogether1":"","StationTogether2":""},{"Address":{"City":"Capitol Heights","State":"MD","Street":"133 Central Avenue","Zip":"20743"},"Code":"G02","Lat":"38.889757","LineCode1":"BL","LineCode2":"SV","LineCode3":{"_i:nil":"true"},"LineCode4":{"_i:nil":"true"},"Lon":"-76.913382","Name":"Capitol Heights","StationTogether1":"","StationTogether2":""},{"Address":{"City":"Capitol Heights","State":"MD","Street":"100 Addison Road S.","Zip":"20743"},"Code":"G03","Lat":"38.886713","LineCode1":"BL","LineCode2":"SV","LineCode3":{"_i:nil":"true"},"LineCode4":{"_i:nil":"true"},"Lon":"-76.893592","Name":"Addison Road-Seat Pleasant","StationTogether1":"","StationTogether2":""},{"Address":{"City":"Landover","State":"MD","Street":"300 Garrett Morgan Blvd.","Zip":"20785"},"Code":"G04","Lat":"38.8913","LineCode1":"BL","LineCode2":"SV","LineCode3":{"_i:nil":"true"},"LineCode4":{"_i:nil":"true"},"Lon":"-76.8682","Name":"Morgan Boulevard","StationTogether1":"","StationTogether2":""},{"Address":{"City":"Largo","State":"MD","Street":"Largo Town Center 9000 Lottsford Road","Zip":"20774"},"Code":"G05","Lat":"38.9008","LineCode1":"BL","LineCode2":"SV","LineCode3":{"_i:nil":"true"},"LineCode4":{"_i:nil":"true"},"Lon":"-76.8449","Name":"Largo Town Center","StationTogether1":"","StationTogether2":""},{"Address":{"City":"Alexandria","State":"VA","Street":"5690 Eisenhower Avenue","Zip":"22310"},"Code":"J02","Lat":"38.799193","LineCode1":"BL","LineCode2":{"_i:nil":"true"},"LineCode3":{"_i:nil":"true"},"LineCode4":{"_i:nil":"true"},"Lon":"-77.129407","Name":"Van Dorn Street","StationTogether1":"","StationTogether2":""},{"Address":{"City":"Springfield","State":"VA","Street":"6880 Frontier Drive","Zip":"22150"},"Code":"J03","Lat":"38.766129","LineCode1":"BL","LineCode2":{"_i:nil":"true"},"LineCode3":{"_i:nil":"true"},"LineCode4":{"_i:nil":"true"},"Lon":"-77.168797","Name":"Franconia-Springfield","StationTogether1":"","StationTogether2":""},{"Address":{"City":"Arlington","State":"VA","Street":"2100 Wilson Blvd","Zip":"22201"},"Code":"K01","Lat":"38.891499","LineCode1":"OR","LineCode2":"SV","LineCode3":{"_i:nil":"true"},"LineCode4":{"_i:nil":"true"},"Lon":"-77.08391","Name":"Court House","StationTogether1":"","StationTogether2":""},{"Address":{"City":"Arlington","State":"VA","Street":"3100 Wilson Blvd","Zip":"22201"},"Code":"K02","Lat":"38.886373","LineCode1":"OR","LineCode2":"SV","LineCode3":{"_i:nil":"true"},"LineCode4":{"_i:nil":"true"},"Lon":"-77.096963","Name":"Clarendon","StationTogether1":"","StationTogether2":""},{"Address":{"City":"Arlington","State":"VA","Street":"3600 Fairfax Drive","Zip":"22201"},"Code":"K03","Lat":"38.88331","LineCode1":"OR","LineCode2":"SV","LineCode3":{"_i:nil":"true"},"LineCode4":{"_i:nil":"true"},"Lon":"-77.104267","Name":"Virginia Square-GMU","StationTogether1":"","StationTogether2":""},{"Address":{"City":"Arlington","State":"VA","Street":"4230 Fairfax Drive","Zip":"22201"},"Code":"K04","Lat":"38.882071","LineCode1":"OR","LineCode2":"SV","LineCode3":{"_i:nil":"true"},"LineCode4":{"_i:nil":"true"},"Lon":"-77.111845","Name":"Ballston-MU","StationTogether1":"","StationTogether2":""},{"Address":{"City":"Arlington","State":"VA","Street":"2001 N. Sycamore St.","Zip":"22205"},"Code":"K05","Lat":"38.885841","LineCode1":"OR","LineCode2":"SV","LineCode3":{"_i:nil":"true"},"LineCode4":{"_i:nil":"true"},"Lon":"-77.157177","Name":"East Falls Church","StationTogether1":"","StationTogether2":""},{"Address":{"City":"Falls Church","State":"VA","Street":"7040 Haycock Road","Zip":"22043"},"Code":"K06","Lat":"38.90067","LineCode1":"OR","LineCode2":{"_i:nil":"true"},"LineCode3":{"_i:nil":"true"},"LineCode4":{"_i:nil":"true"},"Lon":"-77.189394","Name":"West Falls Church-VT/UVA","StationTogether1":"","StationTogether2":""},{"Address":{"City":"Vienna","State":"VA","Street":"2700 Gallows Road","Zip":"22180"},"Code":"K07","Lat":"38.883015","LineCode1":"OR","LineCode2":{"_i:nil":"true"},"LineCode3":{"_i:nil":"true"},"LineCode4":{"_i:nil":"true"},"Lon":"-77.228939","Name":"Dunn Loring-Merrifield","StationTogether1":"","StationTogether2":""},{"Address":{"City":"Fairfax","State":"VA","Street":"9550 Saintsbury Drive","Zip":"22031"},"Code":"K08","Lat":"38.877693","LineCode1":"OR","LineCode2":{"_i:nil":"true"},"LineCode3":{"_i:nil":"true"},"LineCode4":{"_i:nil":"true"},"Lon":"-77.271562","Name":"Vienna/Fairfax-GMU","StationTogether1":"","StationTogether2":""},{"Address":{"City":"McLean","State":"VA","Street":"1824 Dolley Madison Boulevard","Zip":"22102"},"Code":"N01","Lat":"38.924478","LineCode1":"SV","LineCode2":{"_i:nil":"true"},"LineCode3":{"_i:nil":"true"},"LineCode4":{"_i:nil":"true"},"Lon":"-77.210167","Name":"McLean","StationTogether1":"","StationTogether2":""},{"Address":{"City":"McLean","State":"VA","Street":"1943 Chain Bridge Road","Zip":"22102"},"Code":"N02","Lat":"38.920056","LineCode1":"SV","LineCode2":{"_i:nil":"true"},"LineCode3":{"_i:nil":"true"},"LineCode4":{"_i:nil":"true"},"Lon":"-77.223314","Name":"Tysons Corner","StationTogether1":"","StationTogether2":""},{"Address":{"City":"Vienna","State":"VA","Street":"8305 Leesburg Pike","Zip":"22182"},"Code":"N03","Lat":"38.919749","LineCode1":"SV","LineCode2":{"_i:nil":"true"},"LineCode3":{"_i:nil":"true"},"LineCode4":{"_i:nil":"true"},"Lon":"-77.235192","Name":"Greensboro","StationTogether1":"","StationTogether2":""},{"Address":{"City":"Vienna","State":"VA","Street":"1576 Spring Hill Road","Zip":"22182"},"Code":"N04","Lat":"38.92902","LineCode1":"SV","LineCode2":{"_i:nil":"true"},"LineCode3":{"_i:nil":"true"},"LineCode4":{"_i:nil":"true"},"Lon":"-77.24178","Name":"Spring Hill","StationTogether1":"","StationTogether2":""},{"Address":{"City":"Reston","State":"VA","Street":"1862 Wiehle Avenue","Zip":"20190"},"Code":"N06","Lat":"38.947753","LineCode1":"SV","LineCode2":{"_i:nil":"true"},"LineCode3":{"_i:nil":"true"},"LineCode4":{"_i:nil":"true"},"Lon":"-77.340179","Name":"Wiehle-Reston East","StationTogether1":"","StationTogether2":""}]},"_xmlns":"http://www.wmata.com","_xmlns:i":"http://www.w3.org/2001/XMLSchema-instance"}}